[{
  "id": 1,
  "dateStart": "10.12.2020",
  "dateEnd": "31.12.2020",
  "description": "ac neque duis",
  "company": {
    "name": "Ice Hotel",
    "phone": "+62-314-279-2102",
    "email": "zwhitlaw0@craigslist.org"
  },
  "type": "hotel",
  "rating": 3, 
  "discount": 4,
  "locations": [{
    "id": 1,
    "coordinates": {
      "latitude": 53.8930095,
      "longitude": 27.5674444
    },
    "city": "Minsk",
    "country": "Belarus",
    "address": "st. Petra Glebki 5"
  }, {
    "id": 7,
    "coordinates": {
      "latitude": 53.2856154,
      "longitude": 15.2926343
    },
    "city": "Suchań",
    "country": "Poland",
    "address": "2009 Monica Point"
  }],
  "tags": ["pizza", "food"]
},
{
  "id": 2,
  "dateStart": "19.11.2020",
  "dateEnd": "29.08.2020",
  "description": "enim in tempor turpis nec euismod",
  "company": {
    "name": "Cinema+",
    "phone": "+33-219-999-3648",
    "email": "jfearnall1@europa.eu"
  },
  "type": "cinema",
  "rating": 3, 
  "discount": 27,
  "locations": [{
    "id": 1,
    "coordinates": {
      "latitude": 53.8930095,
      "longitude": 27.5674444
    },
    "city": "Minsk",
    "country": "Belarus",
    "address": "st. Petra Glebki 5"
  }],
  "tags": ["tickets", "cinema"]
},
{
  "id": 3,
  "dateStart": "06.04.2020",
  "dateEnd": "28.03.2020",
  "description": "volutpat convallis morbi odio odio elementum",
  "company": {
    "name": "in",
    "phone": "+86-410-930-6520",
    "email": "lmiddlemass2@elpais.com"
  },
  "type": "gas station",
  "rating": 3, 
  "discount": 4,
  "locations": [{
      "id": 3,
      "coordinates": {
        "latitude": 48.9420658,
        "longitude": 25.7464148
      },
      "city": "Yahil’nytsya",
      "country": "Ukraine",
      "address": "82 Main Avenue"
    },
    {
      "id": 2,
      "coordinates": {
        "latitude": 53.904743,
        "longitude": 27.55522
      },
      "city": "Minsk",
      "country": "Belarus",
      "address": "Svobody 5"
    }
  ],
  "tags": ["cars", "oil"]
},
{
  "id": 4,
  "dateStart": "12.01.2021",
  "dateEnd": "09.12.2020",
  "description": "faucibus cursus urna ut",
  "company": {
    "name": "primis",
    "phone": "+86-467-269-3955",
    "email": "ahuws3@bbc.co.uk"
  },
  "type": "restaurant",
  "rating": 3, 
  "discount": 42,
  "locations": [{
    "id": 4,
    "coordinates": {
      "latitude": 55.1872225,
      "longitude": 30.2051165
    },
    "city": "Vitsyebsk",
    "country": "Belarus",
    "address": "0191 Gina Road"
  }],
  "tags": ["scelerisque", "food", "quam", "turpis", "adipiscing", "lorem", "vitae"]
},
{
  "id": 5,
  "dateStart": "04.11.2020",
  "dateEnd": "15.02.2021",
  "description": "The third pizza for free",
  "company": {
    "name": "mauris morbi",
    "phone": "+55-538-685-5858",
    "email": "ajills4@tripod.com"
  },
  "type": "restaurant",
  "rating": 2.5, 
  "locations": [{
    "id": 1,
    "coordinates": {
      "latitude": 53.8930095,
      "longitude": 27.5674444
    },
    "city": "Minsk",
    "country": "Belarus",
    "address": "st. Petra Glebki 5"
  }],
  "tags": ["pizza", "food"]
},
{
  "id": 6,
  "dateStart": "16.02.2021",
  "dateEnd": "17.10.2020",
  "description": "nibh in hac habitasse platea dictumst aliquam augue",
  "company": {
    "name": "imperdiet et commodo",
    "phone": "+86-141-913-2249",
    "email": "jsafe5@51.la"
  },
  "type": "store",
  "rating": 3, 
  "discount": 15,
  "locations": [{
    "id": 5,
    "coordinates": {
      "latitude": 45.1973827,
      "longitude": 33.2979082
    },
    "city": "Uyutne",
    "country": "Ukraine",
    "address": "999 Mosinee Point"
  }, {
    "id": 7,
    "coordinates": {
      "latitude": 53.2856154,
      "longitude": 15.2926343
    },
    "city": "Suchań",
    "country": "Poland",
    "address": "2009 Monica Point"
  }, {
    "id": 1,
    "coordinates": {
      "latitude": 53.8930095,
      "longitude": 27.5674444
    },
    "city": "Minsk",
    "country": "Belarus",
    "address": "st. Petra Glebki 5"
  }],
  "tags": ["Minsk", "hall", "hotel"]
},
{
  "id": 7,
  "dateStart": "20.10.2020",
  "dateEnd": "20.01.2021",
  "description": "cras in purus",
  "company": {
    "name": "Mcdonalds",
    "phone": "+55-369-669-8279",
    "email": "cthorns6@delicious.com"
  },
  "type": "store",
  "rating": 3, 
  "discount": 20,
  "locations": [{
    "id": 5,
    "coordinates": {
      "latitude": 45.1973827,
      "longitude": 33.2979082
    },
    "city": "Uyutne",
    "country": "Ukraine",
    "address": "999 Mosinee Point"
  }, {
    "id": 7,
    "coordinates": {
      "latitude": 53.2856154,
      "longitude": 15.2926343
    },
    "city": "Suchań",
    "country": "Poland",
    "address": "2009 Monica Point"
  }],
  "tags": ["ultrices", "lib", "non", "mattis", "pulvinar"]
},
{
  "id": 8,
  "dateStart": "17.01.2021",
  "dateEnd": "13.01.2021",
  "description": "ipsum dolor sit amet consectetuer",
  "company": {
    "name": "donec vitae",
    "phone": "+55-846-898-5427",
    "email": "tmarzella7@ft.com"
  },
  "type": "store",
  "rating": 3, 
  "discount": 49,
  "locations": [{
    "id": 5,
    "coordinates": {
      "latitude": 45.1973827,
      "longitude": 33.2979082
    },
    "city": "Uyutne",
    "country": "Ukraine",
    "address": "999 Mosinee Point"
  }, {
    "id": 2,
    "coordinates": {
      "latitude": 52.00577,
      "longitude": 33.2615
    },
    "city": "Novhorod-Sivers’kyy",
    "country": "Ukraine",
    "address": "1 Monterey Parkway"
  }, {
    "id": 5,
    "coordinates": {
      "latitude": 45.1973827,
      "longitude": 33.2979082
    },
    "city": "Uyutne",
    "country": "Ukraine",
    "address": "999 Mosinee Point"
  }],
  "tags": ["food"]
},
{
  "id": 9,
  "dateStart": "11.06.2020",
  "dateEnd": "02.06.2020",
  "description": "lacinia eget tincidunt eget tempus vel pede",
  "company": {
    "name": "adipiscing lorem",
    "phone": "+48-374-688-0680",
    "email": "sbagworth8@princeton.edu"
  },
  "type": "store",
  "rating": 3, 
  "discount": 20,
  "locations": [{
    "id": 1,
    "coordinates": {
      "latitude": 53.8930095,
      "longitude": 27.5674444
    },
    "city": "Minsk",
    "country": "Belarus",
    "address": "st. Petra Glebki 5"
  }, {
    "id": 4,
    "coordinates": {
      "latitude": 55.1872225,
      "longitude": 30.2051165
    },
    "city": "Vitsyebsk",
    "country": "Belarus",
    "address": "0191 Gina Road"
  }],
  "tags": ["food", "Minsk", "Vitsyebsk"]
},
{
  "id": 10,
  "dateStart": "07.07.2020",
  "dateEnd": "27.04.2021",
  "description": "turpis a pede posuere nonummy",
  "company": {
    "name": "quis tortor id",
    "phone": "+420-817-722-8369",
    "email": "tbraunston9@hibu.com"
  },
  "type": "store",
  "rating": 3, 
  "discount": 22,
  "locations": [{
    "id": 5,
    "coordinates": {
      "latitude": 45.1973827,
      "longitude": 33.2979082
    },
    "city": "Uyutne",
    "country": "Ukraine",
    "address": "999 Mosinee Point"
  }, {
    "id": 5,
    "coordinates": {
      "latitude": 45.1973827,
      "longitude": 33.2979082
    },
    "city": "Uyutne",
    "country": "Ukraine",
    "address": "999 Mosinee Point"
  }],
  "tags": ["food", "pizza"]
}
]